{
"type": "FeatureCollection",
"name": "Transit_Hubs",
"features": [
{ "type": "Feature", "properties": { "NAME": "Pavilion Park & Ride", "ON_STREET": "US HWY 183", "AT_STREET": "Pavilion Blvd.", "ADDRESS": "12400 US H", "CITY": "Austin", "STATE": "TX", "ZIP": 78759, "SERVICE": "JANUARY 2022", "SOURCE": "Capital Metro", "SOURCEDATE": "2022\/01\/12" }, "geometry": { "type": "Point", "coordinates": [ 619301.672399999573827, 3366796.3506 ] } },
{ "type": "Feature", "properties": { "NAME": "Jonestown Park & Ride", "ON_STREET": "Park Drive", "AT_STREET": "Crestview Drive", "ADDRESS": null, "CITY": "Leander", "STATE": "TX", "ZIP": 78645, "SERVICE": "JANUARY 2022", "SOURCE": "Capital Metro", "SOURCEDATE": "2022\/01\/12" }, "geometry": { "type": "Point", "coordinates": [ 603369.815799999982, 3373894.3889 ] } },
{ "type": "Feature", "properties": { "NAME": "Lago Vista Park & Ride", "ON_STREET": "Dawn Drive", "AT_STREET": "Thunderbird", "ADDRESS": null, "CITY": "Leander", "STATE": "TX", "ZIP": 78645, "SERVICE": "JANUARY 2022", "SOURCE": "Capital Metro", "SOURCEDATE": "2022\/01\/12" }, "geometry": { "type": "Point", "coordinates": [ 597236.687400000169873, 3369450.8649 ] } },
{ "type": "Feature", "properties": { "NAME": "Leander Park & Ride", "ON_STREET": "US HWY 183", "AT_STREET": "FM 2243", "ADDRESS": null, "CITY": "Leander", "STATE": "TX", "ZIP": 78641, "SERVICE": "JANUARY 2022", "SOURCE": "Capital Metro", "SOURCEDATE": "2022\/01\/12" }, "geometry": { "type": "Point", "coordinates": [ 609827.611999999731779, 3384387.8673 ] } },
{ "type": "Feature", "properties": { "NAME": "North Lamar Transit Center", "ON_STREET": "North Lamar Blvd", "AT_STREET": "US HWY 183", "ADDRESS": "7911 Resea", "CITY": "Austin", "STATE": "TX", "ZIP": 78758, "SERVICE": "JANUARY 2022", "SOURCE": "Capital Metro", "SOURCEDATE": "2022\/01\/12" }, "geometry": { "type": "Point", "coordinates": [ 623761.496799999848008, 3358223.6015 ] } },
{ "type": "Feature", "properties": { "NAME": "Manor Park & Ride", "ON_STREET": "Carrie Manor Rd", "AT_STREET": "Lexington", "ADDRESS": null, "CITY": "Manor", "STATE": "TX", "ZIP": 78653, "SERVICE": "JANUARY 2022", "SOURCE": "Capital Metro", "SOURCEDATE": "2022\/01\/12" }, "geometry": { "type": "Point", "coordinates": [ 638508.989199999719858, 3357317.915699999779 ] } },
{ "type": "Feature", "properties": { "NAME": "Lakeline Park & Ride", "ON_STREET": "Lakeline Blvd", "AT_STREET": "Lyndhurst St", "ADDRESS": "13701 Lynd", "CITY": "Austin", "STATE": "TX", "ZIP": 78717, "SERVICE": "JANUARY 2022", "SOURCE": "Capital Metro", "SOURCEDATE": "2022\/01\/12" }, "geometry": { "type": "Point", "coordinates": [ 616390.432599999942, 3372648.988399999216 ] } },
{ "type": "Feature", "properties": { "NAME": "Tech Ridge Park & Ride", "ON_STREET": "Center Ridge Drive", "AT_STREET": "Center Line Drive", "ADDRESS": "900 Center", "CITY": "Austin", "STATE": "TX", "ZIP": 78753, "SERVICE": "JANUARY 2022", "SOURCE": "Capital Metro", "SOURCEDATE": "2022\/01\/12" }, "geometry": { "type": "Point", "coordinates": [ 627893.00040000025183, 3365935.4965 ] } },
{ "type": "Feature", "properties": { "NAME": "Howard Park & Ride", "ON_STREET": "Howard Lane", "AT_STREET": "N Mopac Expy", "ADDRESS": "3710 Howar", "CITY": "Austin", "STATE": "TX", "ZIP": 78727, "SERVICE": "JANUARY 2022", "SOURCE": "Capital Metro", "SOURCEDATE": "2022\/01\/12" }, "geometry": { "type": "Point", "coordinates": [ 624725.758399999700487, 3368304.74459999986 ] } },
{ "type": "Feature", "properties": { "NAME": "Great Hills Park & Ride", "ON_STREET": "JOLLYVILLE", "AT_STREET": "MORADO", "ADDRESS": "10500 JOLL", "CITY": "Austin", "STATE": "TX", "ZIP": 78759, "SERVICE": "JANUARY 2022", "SOURCE": "Capital Metro", "SOURCEDATE": "2022\/01\/12" }, "geometry": { "type": "Point", "coordinates": [ 620014.779900000430644, 3363516.624299999326 ] } },
{ "type": "Feature", "properties": { "NAME": "Triangle Park & Ride", "ON_STREET": "GUADALUPE", "AT_STREET": "46TH", "ADDRESS": "4600 GUADA", "CITY": "Austin", "STATE": "TX", "ZIP": 78751, "SERVICE": "JANUARY 2022", "SOURCE": "Capital Metro", "SOURCEDATE": "2022\/01\/12" }, "geometry": { "type": "Point", "coordinates": [ 621864.078200000338256, 3354283.56599999964 ] } },
{ "type": "Feature", "properties": { "NAME": "South Congress Transit Center", "ON_STREET": "BEN WHITE", "AT_STREET": "CONGRESS", "ADDRESS": "301 W BEN", "CITY": "Austin", "STATE": "TX", "ZIP": 78745, "SERVICE": "JANUARY 2022", "SOURCE": "Capital Metro", "SOURCEDATE": "2022\/01\/12" }, "geometry": { "type": "Point", "coordinates": [ 618695.7785, 3344139.5392 ] } },
{ "type": "Feature", "properties": { "NAME": "New Life Park & Ride", "ON_STREET": "Century Park Blvd", "AT_STREET": "N Mopac Expy", "ADDRESS": "3200 Centu", "CITY": "Austin", "STATE": "TX", "ZIP": 78727, "SERVICE": "JANUARY 2022", "SOURCE": "Capital Metro", "SOURCEDATE": "2022\/01\/12" }, "geometry": { "type": "Point", "coordinates": [ 625041.599799999967, 3367797.543899999931 ] } },
{ "type": "Feature", "properties": { "NAME": "Southpark Meadows Park & Ride", "ON_STREET": "Turk Ln", "AT_STREET": "Slaughter", "ADDRESS": null, "CITY": "Austin", "STATE": "TX", "ZIP": 78748, "SERVICE": "JANUARY 2022", "SOURCE": "Capital Metro", "SOURCEDATE": "2022\/01\/12" }, "geometry": { "type": "Point", "coordinates": [ 616379.426799999549985, 3337485.238199999556 ] } },
{ "type": "Feature", "properties": { "NAME": "Westgate Transit Center", "ON_STREET": "US 290", "AT_STREET": "Packsaddle Pass", "ADDRESS": null, "CITY": "Austin", "STATE": "TX", "ZIP": 78704, "SERVICE": "JANUARY 2022", "SOURCE": "Capital Metro", "SOURCEDATE": "2022\/01\/12" }, "geometry": { "type": "Point", "coordinates": [ 616430.189799999818206, 3344985.6776 ] } },
{ "type": "Feature", "properties": { "NAME": "Round Rock Transit Center", "ON_STREET": "Bagdad Ave", "AT_STREET": "Brown St", "ADDRESS": null, "CITY": "Round Rock", "STATE": "TX", "ZIP": 78664, "SERVICE": "JANUARY 2022", "SOURCE": "Capital Metro", "SOURCEDATE": "2022\/01\/12" }, "geometry": { "type": "Point", "coordinates": [ 626569.4391, 3375778.263399999589 ] } },
{ "type": "Feature", "properties": { "NAME": "Pinnaccle Park and Ride", "ON_STREET": "US 290", "AT_STREET": "SH 71", "ADDRESS": null, "CITY": "Austin", "STATE": "TX", "ZIP": 78736, "SERVICE": "JANUARY 2022", "SOURCE": "Capital Metro", "SOURCEDATE": "2022\/01\/12" }, "geometry": { "type": "Point", "coordinates": [ 607677.3514, 3345077.778799999505 ] } },
{ "type": "Feature", "properties": { "NAME": "Elgin Park & Ride", "ON_STREET": "Main St", "AT_STREET": "Central Ave", "ADDRESS": null, "CITY": "Elgin", "STATE": "TX", "ZIP": 78621, "SERVICE": "JANUARY 2022", "SOURCE": "Capital Metro", "SOURCEDATE": "2022\/01\/12" }, "geometry": { "type": "Point", "coordinates": [ 655464.882799999788404, 3359500.352399999276 ] } },
{ "type": "Feature", "properties": { "NAME": "Norwood Transit Center", "ON_STREET": "Brettonwoods", "AT_STREET": "Rutherford", "ADDRESS": null, "CITY": "Austin", "STATE": "TX", "ZIP": null, "SERVICE": "JANUARY 2022", "SOURCE": "Capital Metro", "SOURCEDATE": "2022\/01\/12" }, "geometry": { "type": "Point", "coordinates": [ 625838.930599999614, 3357244.9425 ] } },
{ "type": "Feature", "properties": { "NAME": "Eastside Bus Plaza", "ON_STREET": null, "AT_STREET": null, "ADDRESS": null, "CITY": null, "STATE": null, "ZIP": null, "SERVICE": "JANUARY 2022", "SOURCE": "Capital Metro", "SOURCEDATE": "2022\/01\/12" }, "geometry": { "type": "Point", "coordinates": [ 625259.776999999769032, 3347396.3574 ] } }
]
}
