{"type":"FeatureCollection", "features":[
{"type":"Feature","geometry":{"type":"Point","coordinates":[-97.7577330298832,30.427354946880808,0]},"properties":{"NAME":"Pavilion Park & Ride","ON_STREET":"US HWY 183","AT_STREET":"Pavilion Blvd.","ADDRESS":"12400 US H","CITY":"Austin","STATE":"TX","ZIP":78759,"SERVICE":"JANUARY 2022","SOURCE":"Capital Metro","SOURCEDATE":"2022-01-12"}},
{"type":"Feature","geometry":{"type":"Point","coordinates":[-97.92289773668303,30.49286933057062,0]},"properties":{"NAME":"Jonestown Park & Ride","ON_STREET":"Park Drive","AT_STREET":"Crestview Drive","ADDRESS":null,"CITY":"Leander","STATE":"TX","ZIP":78645,"SERVICE":"JANUARY 2022","SOURCE":"Capital Metro","SOURCEDATE":"2022-01-12"}},
{"type":"Feature","geometry":{"type":"Point","coordinates":[-97.9872106571398,30.4532897067012,0]},"properties":{"NAME":"Lago Vista Park & Ride","ON_STREET":"Dawn Drive","AT_STREET":"Thunderbird","ADDRESS":null,"CITY":"Leander","STATE":"TX","ZIP":78645,"SERVICE":"JANUARY 2022","SOURCE":"Capital Metro","SOURCEDATE":"2022-01-12"}},
{"type":"Feature","geometry":{"type":"Point","coordinates":[-97.85450841628165,30.586968889095157,0]},"properties":{"NAME":"Leander Park & Ride","ON_STREET":"US HWY 183","AT_STREET":"FM 2243","ADDRESS":null,"CITY":"Leander","STATE":"TX","ZIP":78641,"SERVICE":"JANUARY 2022","SOURCE":"Capital Metro","SOURCEDATE":"2022-01-12"}},
{"type":"Feature","geometry":{"type":"Point","coordinates":[-97.71231816731216,30.349563292551142,0]},"properties":{"NAME":"North Lamar Transit Center","ON_STREET":"North Lamar Blvd","AT_STREET":"US HWY 183","ADDRESS":"7911 Resea","CITY":"Austin","STATE":"TX","ZIP":78758,"SERVICE":"JANUARY 2022","SOURCE":"Capital Metro","SOURCEDATE":"2022-01-12"}},
{"type":"Feature","geometry":{"type":"Point","coordinates":[-97.55903553095494,30.33979177141203,0]},"properties":{"NAME":"Manor Park & Ride","ON_STREET":"Carrie Manor Rd","AT_STREET":"Lexington","ADDRESS":null,"CITY":"Manor","STATE":"TX","ZIP":78653,"SERVICE":"JANUARY 2022","SOURCE":"Capital Metro","SOURCEDATE":"2022-01-12"}},
{"type":"Feature","geometry":{"type":"Point","coordinates":[-97.78738777452438,30.480442130183686,0]},"properties":{"NAME":"Lakeline Park & Ride","ON_STREET":"Lakeline Blvd","AT_STREET":"Lyndhurst St","ADDRESS":"13701 Lynd","CITY":"Austin","STATE":"TX","ZIP":78717,"SERVICE":"JANUARY 2022","SOURCE":"Capital Metro","SOURCEDATE":"2022-01-12"}},
{"type":"Feature","geometry":{"type":"Point","coordinates":[-97.66839817412811,30.41870681381901,0]},"properties":{"NAME":"Tech Ridge Park & Ride","ON_STREET":"Center Ridge Drive","AT_STREET":"Center Line Drive","ADDRESS":"900 Center","CITY":"Austin","STATE":"TX","ZIP":78753,"SERVICE":"JANUARY 2022","SOURCE":"Capital Metro","SOURCEDATE":"2022-01-12"}},
{"type":"Feature","geometry":{"type":"Point","coordinates":[-97.70108456135785,30.440413570889202,0]},"properties":{"NAME":"Howard Park & Ride","ON_STREET":"Howard Lane","AT_STREET":"N Mopac Expy","ADDRESS":"3710 Howar","CITY":"Austin","STATE":"TX","ZIP":78727,"SERVICE":"JANUARY 2022","SOURCE":"Capital Metro","SOURCEDATE":"2022-01-12"}},
{"type":"Feature","geometry":{"type":"Point","coordinates":[-97.7506859937157,30.39769475414585,0]},"properties":{"NAME":"Great Hills Park & Ride","ON_STREET":"JOLLYVILLE","AT_STREET":"MORADO","ADDRESS":"10500 JOLL","CITY":"Austin","STATE":"TX","ZIP":78759,"SERVICE":"JANUARY 2022","SOURCE":"Capital Metro","SOURCEDATE":"2022-01-12"}},
{"type":"Feature","geometry":{"type":"Point","coordinates":[-97.73251381146062,30.31420947395406,0]},"properties":{"NAME":"Triangle Park & Ride","ON_STREET":"GUADALUPE","AT_STREET":"46TH","ADDRESS":"4600 GUADA","CITY":"Austin","STATE":"TX","ZIP":78751,"SERVICE":"JANUARY 2022","SOURCE":"Capital Metro","SOURCEDATE":"2022-01-12"}},
{"type":"Feature","geometry":{"type":"Point","coordinates":[-97.76660500047369,30.223003711245177,0]},"properties":{"NAME":"South Congress Transit Center","ON_STREET":"BEN WHITE","AT_STREET":"CONGRESS","ADDRESS":"301 W BEN","CITY":"Austin","STATE":"TX","ZIP":78745,"SERVICE":"JANUARY 2022","SOURCE":"Capital Metro","SOURCEDATE":"2022-01-12"}},
{"type":"Feature","geometry":{"type":"Point","coordinates":[-97.69785686031511,30.4358049997382,0]},"properties":{"NAME":"New Life Park & Ride","ON_STREET":"Century Park Blvd","AT_STREET":"N Mopac Expy","ADDRESS":"3200 Centu","CITY":"Austin","STATE":"TX","ZIP":78727,"SERVICE":"JANUARY 2022","SOURCE":"Capital Metro","SOURCEDATE":"2022-01-12"}},
{"type":"Feature","geometry":{"type":"Point","coordinates":[-97.79140372054152,30.163190700891263,0]},"properties":{"NAME":"Southpark Meadows Park & Ride","ON_STREET":"Turk Ln","AT_STREET":"Slaughter","ADDRESS":null,"CITY":"Austin","STATE":"TX","ZIP":78748,"SERVICE":"JANUARY 2022","SOURCE":"Capital Metro","SOURCEDATE":"2022-01-12"}},
{"type":"Feature","geometry":{"type":"Point","coordinates":[-97.79004933871552,30.230857221920395,0]},"properties":{"NAME":"Westgate Transit Center","ON_STREET":"US 290","AT_STREET":"Packsaddle Pass","ADDRESS":null,"CITY":"Austin","STATE":"TX","ZIP":78704,"SERVICE":"JANUARY 2022","SOURCE":"Capital Metro","SOURCEDATE":"2022-01-12"}},
{"type":"Feature","geometry":{"type":"Point","coordinates":[-97.68097975360521,30.507643875277964,0]},"properties":{"NAME":"Round Rock Transit Center","ON_STREET":"Bagdad Ave","AT_STREET":"Brown St","ADDRESS":null,"CITY":"Round Rock","STATE":"TX","ZIP":78664,"SERVICE":"JANUARY 2022","SOURCE":"Capital Metro","SOURCEDATE":"2022-01-12"}},
{"type":"Feature","geometry":{"type":"Point","coordinates":[-97.88098490335022,30.232496438006155,0]},"properties":{"NAME":"Pinnaccle Park and Ride","ON_STREET":"US 290","AT_STREET":"SH 71","ADDRESS":null,"CITY":"Austin","STATE":"TX","ZIP":78736,"SERVICE":"JANUARY 2022","SOURCE":"Capital Metro","SOURCEDATE":"2022-01-12"}},
{"type":"Feature","geometry":{"type":"Point","coordinates":[-97.38236850444035,30.35741602627439,0]},"properties":{"NAME":"Elgin Park & Ride","ON_STREET":"Main St","AT_STREET":"Central Ave","ADDRESS":null,"CITY":"Elgin","STATE":"TX","ZIP":78621,"SERVICE":"JANUARY 2022","SOURCE":"Capital Metro","SOURCEDATE":"2022-01-12"}},
{"type":"Feature","geometry":{"type":"Point","coordinates":[-97.69082565301387,30.340519402032974,0]},"properties":{"NAME":"Norwood Transit Center","ON_STREET":"Brettonwoods","AT_STREET":"Rutherford","ADDRESS":null,"CITY":"Austin","STATE":"TX","ZIP":null,"SERVICE":"JANUARY 2022","SOURCE":"Capital Metro","SOURCEDATE":"2022-01-12"}},
{"type":"Feature","geometry":{"type":"Point","coordinates":[-97.6980241096031,30.25172699881009,0]},"properties":{"NAME":"Eastside Bus Plaza","ON_STREET":null,"AT_STREET":null,"ADDRESS":null,"CITY":null,"STATE":null,"ZIP":null,"SERVICE":"JANUARY 2022","SOURCE":"Capital Metro","SOURCEDATE":"2022-01-12"}}
]}
